{
  "9021137000001000": {
    "stop_id": "9021137000001000",
    "stop_name": "Stockholm Centralstation",
    "stop_lat": "59.330139",
    "stop_lon": "18.058155",
    "location_type": "1",
    "parent_station": "",
    "platform_code": ""
  },
  "9021137000002000": {
    "stop_id": "9021137000002000",
    "stop_name": "G\u00f6teborg Centralstation",
    "stop_lat": "57.708894",
    "stop_lon": "11.973478",
    "location_type": "1",
    "parent_station": "",
    "platform_code": ""
  },
  "9021137000004000": {
    "stop_id": "9021137000004000",
    "stop_name": "Alvesta station",
    "stop_lat": "56.898781",
    "stop_lon": "14.556318",
    "location_type": "1",
    "parent_station": "",
    "platform_code": ""
  },
  "9021137000005000": {
    "stop_id": "9021137000005000",
    "stop_name": "Uppsala Centralstation",
    "stop_lat": "59.858533",
    "stop_lon": "17.646086",
    "location_type": "1",
    "parent_station": "",
    "platform_code": ""
  },
  "9021137000007000": {
    "stop_id": "9021137000007000",
    "stop_name": "Norrk\u00f6ping Centralstation",
    "stop_lat": "58.596626",
    "stop_lon": "16.183346",
    "location_type": "1",
    "parent_station": "",
    "platform_code": ""
  },
  "9021137000008000": {
    "stop_id": "9021137000008000",
    "stop_name": "Sk\u00f6vde Centralstation",
    "stop_lat": "58.390896",
    "stop_lon": "13.853193",
    "location_type": "1",
    "parent_station": "",
    "platform_code": ""
  },
  "9021137000009000": {
    "stop_id": "9021137000009000",
    "stop_name": "Link\u00f6ping Centralstation",
    "stop_lat": "58.416635",
    "stop_lon": "15.624963",
    "location_type": "1",
    "parent_station": "",
    "platform_code": ""
  },
  "9021137000018000": {
    "stop_id": "9021137000018000",
    "stop_name": "Alings\u00e5s station",
    "stop_lat": "57.926861",
    "stop_lon": "12.532493",
    "location_type": "1",
    "parent_station": "",
    "platform_code": ""
  },
  "9021137000019000": {
    "stop_id": "9021137000019000",
    "stop_name": "Leksand station",
    "stop_lat": "60.733992",
    "stop_lon": "15.003328",
    "location_type": "1",
    "parent_station": "",
    "platform_code": ""
  },
  "9021137000023000": {
    "stop_id": "9021137000023000",
    "stop_name": "S\u00e4ffle station",
    "stop_lat": "59.132229",
    "stop_lon": "12.916874",
    "location_type": "1",
    "parent_station": "",
    "platform_code": ""
  },
  "9021137000030000": {
    "stop_id": "9021137000030000",
    "stop_name": "Falun Centralstation",
    "stop_lat": "60.603289",
    "stop_lon": "15.641624",
    "location_type": "1",
    "parent_station": "",
    "platform_code": ""
  },
  "9021137000031000": {
    "stop_id": "9021137000031000",
    "stop_name": "Flemingsberg station",
    "stop_lat": "59.217957",
    "stop_lon": "17.945682",
    "location_type": "1",
    "parent_station": "",
    "platform_code": ""
  },
  "9021137000039000": {
    "stop_id": "9021137000039000",
    "stop_name": "Mellerud station",
    "stop_lat": "58.701860",
    "stop_lon": "12.464742",
    "location_type": "1",
    "parent_station": "",
    "platform_code": ""
  },
  "9021137000040000": {
    "stop_id": "9021137000040000",
    "stop_name": "Herrljunga station",
    "stop_lat": "58.079186",
    "stop_lon": "13.021274",
    "location_type": "1",
    "parent_station": "",
    "platform_code": ""
  },
  "9021137000041000": {
    "stop_id": "9021137000041000",
    "stop_name": "Tran\u00e5s station",
    "stop_lat": "58.037967",
    "stop_lon": "14.975024",
    "location_type": "1",
    "parent_station": "",
    "platform_code": ""
  },
  "9021137000055000": {
    "stop_id": "9021137000055000",
    "stop_name": "S\u00f6dert\u00e4lje Syd station",
    "stop_lat": "59.162411",
    "stop_lon": "17.645368",
    "location_type": "1",
    "parent_station": "",
    "platform_code": ""
  },
  "9021137000060000": {
    "stop_id": "9021137000060000",
    "stop_name": "Falk\u00f6ping Centralstation",
    "stop_lat": "58.176100",
    "stop_lon": "13.553793",
    "location_type": "1",
    "parent_station": "",
    "platform_code": ""
  },
  "9021137000062000": {
    "stop_id": "9021137000062000",
    "stop_name": "Smedjebacken",
    "stop_lat": "60.136321",
    "stop_lon": "15.405814",
    "location_type": "1",
    "parent_station": "",
    "platform_code": ""
  },
  "9021137000070000": {
    "stop_id": "9021137000070000",
    "stop_name": "Karlstad Centralstation",
    "stop_lat": "59.377797",
    "stop_lon": "13.499047",
    "location_type": "1",
    "parent_station": "",
    "platform_code": ""
  },
  "9021137000072000": {
    "stop_id": "9021137000072000",
    "stop_name": "Enk\u00f6ping station",
    "stop_lat": "59.644324",
    "stop_lon": "17.086745",
    "location_type": "1",
    "parent_station": "",
    "platform_code": ""
  },
  "9021137000076000": {
    "stop_id": "9021137000076000",
    "stop_name": "\u00c5m\u00e5l station",
    "stop_lat": "59.046416",
    "stop_lon": "12.698150",
    "location_type": "1",
    "parent_station": "",
    "platform_code": ""
  },
  "9021137000077000": {
    "stop_id": "9021137000077000",
    "stop_name": "Hallsberg station",
    "stop_lat": "59.067102",
    "stop_lon": "15.110379",
    "location_type": "1",
    "parent_station": "",
    "platform_code": ""
  },
  "9021137000093000": {
    "stop_id": "9021137000093000",
    "stop_name": "Lindesberg station",
    "stop_lat": "59.594592",
    "stop_lon": "15.228830",
    "location_type": "1",
    "parent_station": "",
    "platform_code": ""
  },
  "9021137000097000": {
    "stop_id": "9021137000097000",
    "stop_name": "T\u00e4llberg station",
    "stop_lat": "60.818240",
    "stop_lon": "15.018401",
    "location_type": "1",
    "parent_station": "",
    "platform_code": ""
  },
  "9021137000099000": {
    "stop_id": "9021137000099000",
    "stop_name": "V\u00e4ster\u00e5s Centralstation",
    "stop_lat": "59.607703",
    "stop_lon": "16.551707",
    "location_type": "1",
    "parent_station": "",
    "platform_code": ""
  },
  "9021137000111000": {
    "stop_id": "9021137000111000",
    "stop_name": "Avesta Krylbo station",
    "stop_lat": "60.129669",
    "stop_lon": "16.215929",
    "location_type": "1",
    "parent_station": "",
    "platform_code": ""
  },
  "9021137000129000": {
    "stop_id": "9021137000129000",
    "stop_name": "Degerfors station",
    "stop_lat": "59.229130",
    "stop_lon": "14.439840",
    "location_type": "1",
    "parent_station": "",
    "platform_code": ""
  },
  "9021137000133000": {
    "stop_id": "9021137000133000",
    "stop_name": "\u00d6rebro Centralstation",
    "stop_lat": "59.278941",
    "stop_lon": "15.211344",
    "location_type": "1",
    "parent_station": "",
    "platform_code": ""
  },
  "9021137000140000": {
    "stop_id": "9021137000140000",
    "stop_name": "N\u00e4ssj\u00f6 Centralstation",
    "stop_lat": "57.652439",
    "stop_lon": "14.693982",
    "location_type": "1",
    "parent_station": "",
    "platform_code": ""
  },
  "9021137000158000": {
    "stop_id": "9021137000158000",
    "stop_name": "R\u00e4ttvik station",
    "stop_lat": "60.885116",
    "stop_lon": "15.115628",
    "location_type": "1",
    "parent_station": "",
    "platform_code": ""
  },
  "9021137000160000": {
    "stop_id": "9021137000160000",
    "stop_name": "Borl\u00e4nge Centralstation",
    "stop_lat": "60.483535",
    "stop_lon": "15.425840",
    "location_type": "1",
    "parent_station": "",
    "platform_code": ""
  },
  "9021137000162000": {
    "stop_id": "9021137000162000",
    "stop_name": "Gr\u00e4ngesberg station",
    "stop_lat": "60.076395",
    "stop_lon": "15.005463",
    "location_type": "1",
    "parent_station": "",
    "platform_code": ""
  },
  "9021137000166000": {
    "stop_id": "9021137000166000",
    "stop_name": "Katrineholm Centralstation",
    "stop_lat": "58.996592",
    "stop_lon": "16.208325",
    "location_type": "1",
    "parent_station": "",
    "platform_code": ""
  },
  "9021137000167000": {
    "stop_id": "9021137000167000",
    "stop_name": "K\u00f6ping station",
    "stop_lat": "59.506671",
    "stop_lon": "16.004217",
    "location_type": "1",
    "parent_station": "",
    "platform_code": ""
  },
  "9021137000172000": {
    "stop_id": "9021137000172000",
    "stop_name": "Motala station",
    "stop_lat": "58.537486",
    "stop_lon": "15.048309",
    "location_type": "1",
    "parent_station": "",
    "platform_code": ""
  },
  "9021137000173000": {
    "stop_id": "9021137000173000",
    "stop_name": "\u00d6xnered station",
    "stop_lat": "58.359219",
    "stop_lon": "12.273695",
    "location_type": "1",
    "parent_station": "",
    "platform_code": ""
  },
  "9021137000180000": {
    "stop_id": "9021137000180000",
    "stop_name": "Mj\u00f6lby station",
    "stop_lat": "58.322981",
    "stop_lon": "15.131987",
    "location_type": "1",
    "parent_station": "",
    "platform_code": ""
  },
  "9021137000183000": {
    "stop_id": "9021137000183000",
    "stop_name": "T\u00f6reboda station",
    "stop_lat": "58.706022",
    "stop_lon": "14.128391",
    "location_type": "1",
    "parent_station": "",
    "platform_code": ""
  },
  "9021137000191000": {
    "stop_id": "9021137000191000",
    "stop_name": "Trollh\u00e4ttan Centralstation",
    "stop_lat": "58.287579",
    "stop_lon": "12.299218",
    "location_type": "1",
    "parent_station": "",
    "platform_code": ""
  },
  "9021137000194000": {
    "stop_id": "9021137000194000",
    "stop_name": "Lax\u00e5 station",
    "stop_lat": "58.989392",
    "stop_lon": "14.616657",
    "location_type": "1",
    "parent_station": "",
    "platform_code": ""
  },
  "9021137000206000": {
    "stop_id": "9021137000206000",
    "stop_name": "Kil station",
    "stop_lat": "59.505031",
    "stop_lon": "13.316341",
    "location_type": "1",
    "parent_station": "",
    "platform_code": ""
  },
  "9021137000214000": {
    "stop_id": "9021137000214000",
    "stop_name": "Sala station",
    "stop_lat": "59.924961",
    "stop_lon": "16.605446",
    "location_type": "1",
    "parent_station": "",
    "platform_code": ""
  },
  "9021137000217000": {
    "stop_id": "9021137000217000",
    "stop_name": "Grums station",
    "stop_lat": "59.352987",
    "stop_lon": "13.113765",
    "location_type": "1",
    "parent_station": "",
    "platform_code": ""
  },
  "9021137000222000": {
    "stop_id": "9021137000222000",
    "stop_name": "Kristinehamn station",
    "stop_lat": "59.316500",
    "stop_lon": "14.108292",
    "location_type": "1",
    "parent_station": "",
    "platform_code": ""
  },
  "9021137000262000": {
    "stop_id": "9021137000262000",
    "stop_name": "Arboga station",
    "stop_lat": "59.397107",
    "stop_lon": "15.841060",
    "location_type": "1",
    "parent_station": "",
    "platform_code": ""
  },
  "9021137000266000": {
    "stop_id": "9021137000266000",
    "stop_name": "Fagersta Centralstation",
    "stop_lat": "59.990463",
    "stop_lon": "15.815703",
    "location_type": "1",
    "parent_station": "",
    "platform_code": ""
  },
  "9021137000280000": {
    "stop_id": "9021137000280000",
    "stop_name": "Kopparberg station",
    "stop_lat": "59.872712",
    "stop_lon": "14.986853",
    "location_type": "1",
    "parent_station": "",
    "platform_code": ""
  },
  "9021137000287000": {
    "stop_id": "9021137000287000",
    "stop_name": "V\u00e4se",
    "stop_lat": "59.381610",
    "stop_lon": "13.853490",
    "location_type": "1",
    "parent_station": "",
    "platform_code": ""
  },
  "9021137000288000": {
    "stop_id": "9021137000288000",
    "stop_name": "Flen station",
    "stop_lat": "59.057298",
    "stop_lon": "16.588914",
    "location_type": "1",
    "parent_station": "",
    "platform_code": ""
  },
  "9021137000291000": {
    "stop_id": "9021137000291000",
    "stop_name": "Ludvika station",
    "stop_lat": "60.149828",
    "stop_lon": "15.182648",
    "location_type": "1",
    "parent_station": "",
    "platform_code": ""
  },
  "9021137000302000": {
    "stop_id": "9021137000302000",
    "stop_name": "Mora station",
    "stop_lat": "61.009054",
    "stop_lon": "14.560044",
    "location_type": "1",
    "parent_station": "",
    "platform_code": ""
  },
  "9021137000322000": {
    "stop_id": "9021137000322000",
    "stop_name": "Gagnef station",
    "stop_lat": "60.598796",
    "stop_lon": "15.081377",
    "location_type": "1",
    "parent_station": "",
    "platform_code": ""
  },
  "9021137000347000": {
    "stop_id": "9021137000347000",
    "stop_name": "Storfors station",
    "stop_lat": "59.533168",
    "stop_lon": "14.271408",
    "location_type": "1",
    "parent_station": "",
    "platform_code": ""
  },
  "9021137000361000": {
    "stop_id": "9021137000361000",
    "stop_name": "\u00d6rebro S\u00f6dra station",
    "stop_lat": "59.269985",
    "stop_lon": "15.202329",
    "location_type": "1",
    "parent_station": "",
    "platform_code": ""
  },
  "9021137000419000": {
    "stop_id": "9021137000419000",
    "stop_name": "H\u00e4llefors station",
    "stop_lat": "59.782636",
    "stop_lon": "14.518613",
    "location_type": "1",
    "parent_station": "",
    "platform_code": ""
  },
  "9021137000482000": {
    "stop_id": "9021137000482000",
    "stop_name": "Grythyttan station",
    "stop_lat": "59.704246",
    "stop_lon": "14.530401",
    "location_type": "1",
    "parent_station": "",
    "platform_code": ""
  },
  "9021137000540000": {
    "stop_id": "9021137000540000",
    "stop_name": "Lerum station",
    "stop_lat": "57.769359",
    "stop_lon": "12.272316",
    "location_type": "1",
    "parent_station": "",
    "platform_code": ""
  },
  "9021137000569000": {
    "stop_id": "9021137000569000",
    "stop_name": "V\u00e5rg\u00e5rda station",
    "stop_lat": "58.031202",
    "stop_lon": "12.810288",
    "location_type": "1",
    "parent_station": "",
    "platform_code": ""
  },
  "9021137000622000": {
    "stop_id": "9021137000622000",
    "stop_name": "Stockholm Cityterminalen",
    "stop_lat": "59.330843",
    "stop_lon": "18.056374",
    "location_type": "1",
    "parent_station": "",
    "platform_code": ""
  },
  "9021137000638000": {
    "stop_id": "9021137000638000",
    "stop_name": "St\u00e4lldalen station",
    "stop_lat": "59.933651",
    "stop_lon": "14.943210",
    "location_type": "1",
    "parent_station": "",
    "platform_code": ""
  },
  "9021137000765000": {
    "stop_id": "9021137000765000",
    "stop_name": "Stockholm S\u00f6dra station",
    "stop_lat": "59.314171",
    "stop_lon": "18.064493",
    "location_type": "1",
    "parent_station": "",
    "platform_code": ""
  },
  "9021137000776000": {
    "stop_id": "9021137000776000",
    "stop_name": "Tumba station",
    "stop_lat": "59.199733",
    "stop_lon": "17.835657",
    "location_type": "1",
    "parent_station": "",
    "platform_code": ""
  },
  "9021137000789000": {
    "stop_id": "9021137000789000",
    "stop_name": "\u00c4lvsj\u00f6 station",
    "stop_lat": "59.278736",
    "stop_lon": "18.011066",
    "location_type": "1",
    "parent_station": "",
    "platform_code": ""
  },
  "9021137000816000": {
    "stop_id": "9021137000816000",
    "stop_name": "Nykroppa station",
    "stop_lat": "59.623839",
    "stop_lon": "14.307433",
    "location_type": "1",
    "parent_station": "",
    "platform_code": ""
  },
  "9021137001532000": {
    "stop_id": "9021137001532000",
    "stop_name": "Sikfors station",
    "stop_lat": "59.806638",
    "stop_lon": "14.583244",
    "location_type": "1",
    "parent_station": "",
    "platform_code": ""
  },
  "9021137001564000": {
    "stop_id": "9021137001564000",
    "stop_name": "\u00c4lv\u00e4ngen station",
    "stop_lat": "57.957818",
    "stop_lon": "12.116398",
    "location_type": "1",
    "parent_station": "",
    "platform_code": ""
  },
  "9021137001601000": {
    "stop_id": "9021137001601000",
    "stop_name": "Surte station",
    "stop_lat": "57.825033",
    "stop_lon": "12.014508",
    "location_type": "1",
    "parent_station": "",
    "platform_code": ""
  },
  "9021137010325000": {
    "stop_id": "9021137010325000",
    "stop_name": "Filipstad Bussterminalen",
    "stop_lat": "59.713405",
    "stop_lon": "14.173151",
    "location_type": "1",
    "parent_station": "",
    "platform_code": ""
  },
  "9021137020094000": {
    "stop_id": "9021137020094000",
    "stop_name": "Fagersta Norra",
    "stop_lat": "60.002714",
    "stop_lon": "15.787765",
    "location_type": "1",
    "parent_station": "",
    "platform_code": ""
  },
  "9021137025002000": {
    "stop_id": "9021137025002000",
    "stop_name": "V\u00e4lsviken station",
    "stop_lat": "59.391296",
    "stop_lon": "13.582952",
    "location_type": "1",
    "parent_station": "",
    "platform_code": ""
  },
  "9022137000001001": {
    "stop_id": "9022137000001001",
    "stop_name": "Stockholm Centralstation",
    "stop_lat": "59.330139",
    "stop_lon": "18.058155",
    "location_type": "0",
    "parent_station": "9021137000001000",
    "platform_code": "*"
  },
  "9022137000002001": {
    "stop_id": "9022137000002001",
    "stop_name": "G\u00f6teborg Centralstation",
    "stop_lat": "57.708894",
    "stop_lon": "11.973478",
    "location_type": "0",
    "parent_station": "9021137000002000",
    "platform_code": "*"
  },
  "9022137000004001": {
    "stop_id": "9022137000004001",
    "stop_name": "Alvesta station",
    "stop_lat": "56.898781",
    "stop_lon": "14.556318",
    "location_type": "0",
    "parent_station": "9021137000004000",
    "platform_code": "*"
  },
  "9022137000005001": {
    "stop_id": "9022137000005001",
    "stop_name": "Uppsala Centralstation",
    "stop_lat": "59.858533",
    "stop_lon": "17.646086",
    "location_type": "0",
    "parent_station": "9021137000005000",
    "platform_code": "*"
  },
  "9022137000007001": {
    "stop_id": "9022137000007001",
    "stop_name": "Norrk\u00f6ping Centralstation",
    "stop_lat": "58.596626",
    "stop_lon": "16.183346",
    "location_type": "0",
    "parent_station": "9021137000007000",
    "platform_code": "*"
  },
  "9022137000008001": {
    "stop_id": "9022137000008001",
    "stop_name": "Sk\u00f6vde Centralstation",
    "stop_lat": "58.390896",
    "stop_lon": "13.853193",
    "location_type": "0",
    "parent_station": "9021137000008000",
    "platform_code": "*"
  },
  "9022137000009001": {
    "stop_id": "9022137000009001",
    "stop_name": "Link\u00f6ping Centralstation",
    "stop_lat": "58.416635",
    "stop_lon": "15.624963",
    "location_type": "0",
    "parent_station": "9021137000009000",
    "platform_code": "*"
  },
  "9022137000018001": {
    "stop_id": "9022137000018001",
    "stop_name": "Alings\u00e5s station",
    "stop_lat": "57.926861",
    "stop_lon": "12.532493",
    "location_type": "0",
    "parent_station": "9021137000018000",
    "platform_code": "*"
  },
  "9022137000019001": {
    "stop_id": "9022137000019001",
    "stop_name": "Leksand station",
    "stop_lat": "60.733992",
    "stop_lon": "15.003328",
    "location_type": "0",
    "parent_station": "9021137000019000",
    "platform_code": "*"
  },
  "9022137000023001": {
    "stop_id": "9022137000023001",
    "stop_name": "S\u00e4ffle station",
    "stop_lat": "59.132229",
    "stop_lon": "12.916874",
    "location_type": "0",
    "parent_station": "9021137000023000",
    "platform_code": "*"
  },
  "9022137000030001": {
    "stop_id": "9022137000030001",
    "stop_name": "Falun Centralstation",
    "stop_lat": "60.603289",
    "stop_lon": "15.641624",
    "location_type": "0",
    "parent_station": "9021137000030000",
    "platform_code": "*"
  },
  "9022137000031001": {
    "stop_id": "9022137000031001",
    "stop_name": "Flemingsberg station",
    "stop_lat": "59.217957",
    "stop_lon": "17.945682",
    "location_type": "0",
    "parent_station": "9021137000031000",
    "platform_code": "*"
  },
  "9022137000039001": {
    "stop_id": "9022137000039001",
    "stop_name": "Mellerud station",
    "stop_lat": "58.701860",
    "stop_lon": "12.464742",
    "location_type": "0",
    "parent_station": "9021137000039000",
    "platform_code": "*"
  },
  "9022137000040001": {
    "stop_id": "9022137000040001",
    "stop_name": "Herrljunga station",
    "stop_lat": "58.079186",
    "stop_lon": "13.021274",
    "location_type": "0",
    "parent_station": "9021137000040000",
    "platform_code": "*"
  },
  "9022137000041001": {
    "stop_id": "9022137000041001",
    "stop_name": "Tran\u00e5s station",
    "stop_lat": "58.037967",
    "stop_lon": "14.975024",
    "location_type": "0",
    "parent_station": "9021137000041000",
    "platform_code": "*"
  },
  "9022137000055001": {
    "stop_id": "9022137000055001",
    "stop_name": "S\u00f6dert\u00e4lje Syd station",
    "stop_lat": "59.162411",
    "stop_lon": "17.645368",
    "location_type": "0",
    "parent_station": "9021137000055000",
    "platform_code": "*"
  },
  "9022137000060001": {
    "stop_id": "9022137000060001",
    "stop_name": "Falk\u00f6ping Centralstation",
    "stop_lat": "58.176100",
    "stop_lon": "13.553793",
    "location_type": "0",
    "parent_station": "9021137000060000",
    "platform_code": "*"
  },
  "9022137000062001": {
    "stop_id": "9022137000062001",
    "stop_name": "Smedjebacken",
    "stop_lat": "60.136321",
    "stop_lon": "15.405814",
    "location_type": "0",
    "parent_station": "9021137000062000",
    "platform_code": "*"
  },
  "9022137000070001": {
    "stop_id": "9022137000070001",
    "stop_name": "Karlstad Centralstation",
    "stop_lat": "59.377797",
    "stop_lon": "13.499047",
    "location_type": "0",
    "parent_station": "9021137000070000",
    "platform_code": "*"
  },
  "9022137000072001": {
    "stop_id": "9022137000072001",
    "stop_name": "Enk\u00f6ping station",
    "stop_lat": "59.644324",
    "stop_lon": "17.086745",
    "location_type": "0",
    "parent_station": "9021137000072000",
    "platform_code": "*"
  },
  "9022137000076001": {
    "stop_id": "9022137000076001",
    "stop_name": "\u00c5m\u00e5l station",
    "stop_lat": "59.046416",
    "stop_lon": "12.698150",
    "location_type": "0",
    "parent_station": "9021137000076000",
    "platform_code": "*"
  },
  "9022137000077001": {
    "stop_id": "9022137000077001",
    "stop_name": "Hallsberg station",
    "stop_lat": "59.067102",
    "stop_lon": "15.110379",
    "location_type": "0",
    "parent_station": "9021137000077000",
    "platform_code": "*"
  },
  "9022137000093001": {
    "stop_id": "9022137000093001",
    "stop_name": "Lindesberg station",
    "stop_lat": "59.594592",
    "stop_lon": "15.228830",
    "location_type": "0",
    "parent_station": "9021137000093000",
    "platform_code": "*"
  },
  "9022137000097001": {
    "stop_id": "9022137000097001",
    "stop_name": "T\u00e4llberg station",
    "stop_lat": "60.818240",
    "stop_lon": "15.018401",
    "location_type": "0",
    "parent_station": "9021137000097000",
    "platform_code": "*"
  },
  "9022137000099001": {
    "stop_id": "9022137000099001",
    "stop_name": "V\u00e4ster\u00e5s Centralstation",
    "stop_lat": "59.607703",
    "stop_lon": "16.551707",
    "location_type": "0",
    "parent_station": "9021137000099000",
    "platform_code": "*"
  },
  "9022137000111001": {
    "stop_id": "9022137000111001",
    "stop_name": "Avesta Krylbo station",
    "stop_lat": "60.129669",
    "stop_lon": "16.215929",
    "location_type": "0",
    "parent_station": "9021137000111000",
    "platform_code": "*"
  },
  "9022137000129001": {
    "stop_id": "9022137000129001",
    "stop_name": "Degerfors station",
    "stop_lat": "59.229130",
    "stop_lon": "14.439840",
    "location_type": "0",
    "parent_station": "9021137000129000",
    "platform_code": "*"
  },
  "9022137000133001": {
    "stop_id": "9022137000133001",
    "stop_name": "\u00d6rebro Centralstation",
    "stop_lat": "59.278941",
    "stop_lon": "15.211344",
    "location_type": "0",
    "parent_station": "9021137000133000",
    "platform_code": "*"
  },
  "9022137000140001": {
    "stop_id": "9022137000140001",
    "stop_name": "N\u00e4ssj\u00f6 Centralstation",
    "stop_lat": "57.652439",
    "stop_lon": "14.693982",
    "location_type": "0",
    "parent_station": "9021137000140000",
    "platform_code": "*"
  },
  "9022137000158001": {
    "stop_id": "9022137000158001",
    "stop_name": "R\u00e4ttvik station",
    "stop_lat": "60.885116",
    "stop_lon": "15.115628",
    "location_type": "0",
    "parent_station": "9021137000158000",
    "platform_code": "*"
  },
  "9022137000160001": {
    "stop_id": "9022137000160001",
    "stop_name": "Borl\u00e4nge Centralstation",
    "stop_lat": "60.483535",
    "stop_lon": "15.425840",
    "location_type": "0",
    "parent_station": "9021137000160000",
    "platform_code": "*"
  },
  "9022137000162001": {
    "stop_id": "9022137000162001",
    "stop_name": "Gr\u00e4ngesberg station",
    "stop_lat": "60.076395",
    "stop_lon": "15.005463",
    "location_type": "0",
    "parent_station": "9021137000162000",
    "platform_code": "*"
  },
  "9022137000166001": {
    "stop_id": "9022137000166001",
    "stop_name": "Katrineholm Centralstation",
    "stop_lat": "58.996592",
    "stop_lon": "16.208325",
    "location_type": "0",
    "parent_station": "9021137000166000",
    "platform_code": "*"
  },
  "9022137000167001": {
    "stop_id": "9022137000167001",
    "stop_name": "K\u00f6ping station",
    "stop_lat": "59.506671",
    "stop_lon": "16.004217",
    "location_type": "0",
    "parent_station": "9021137000167000",
    "platform_code": "*"
  },
  "9022137000172001": {
    "stop_id": "9022137000172001",
    "stop_name": "Motala station",
    "stop_lat": "58.537486",
    "stop_lon": "15.048309",
    "location_type": "0",
    "parent_station": "9021137000172000",
    "platform_code": "*"
  },
  "9022137000173001": {
    "stop_id": "9022137000173001",
    "stop_name": "\u00d6xnered station",
    "stop_lat": "58.359219",
    "stop_lon": "12.273695",
    "location_type": "0",
    "parent_station": "9021137000173000",
    "platform_code": "*"
  },
  "9022137000180001": {
    "stop_id": "9022137000180001",
    "stop_name": "Mj\u00f6lby station",
    "stop_lat": "58.322981",
    "stop_lon": "15.131987",
    "location_type": "0",
    "parent_station": "9021137000180000",
    "platform_code": "*"
  },
  "9022137000183001": {
    "stop_id": "9022137000183001",
    "stop_name": "T\u00f6reboda station",
    "stop_lat": "58.706022",
    "stop_lon": "14.128391",
    "location_type": "0",
    "parent_station": "9021137000183000",
    "platform_code": "*"
  },
  "9022137000191001": {
    "stop_id": "9022137000191001",
    "stop_name": "Trollh\u00e4ttan Centralstation",
    "stop_lat": "58.287579",
    "stop_lon": "12.299218",
    "location_type": "0",
    "parent_station": "9021137000191000",
    "platform_code": "*"
  },
  "9022137000194001": {
    "stop_id": "9022137000194001",
    "stop_name": "Lax\u00e5 station",
    "stop_lat": "58.989392",
    "stop_lon": "14.616657",
    "location_type": "0",
    "parent_station": "9021137000194000",
    "platform_code": "*"
  },
  "9022137000206001": {
    "stop_id": "9022137000206001",
    "stop_name": "Kil station",
    "stop_lat": "59.505031",
    "stop_lon": "13.316341",
    "location_type": "0",
    "parent_station": "9021137000206000",
    "platform_code": "*"
  },
  "9022137000214001": {
    "stop_id": "9022137000214001",
    "stop_name": "Sala station",
    "stop_lat": "59.924961",
    "stop_lon": "16.605446",
    "location_type": "0",
    "parent_station": "9021137000214000",
    "platform_code": "*"
  },
  "9022137000217001": {
    "stop_id": "9022137000217001",
    "stop_name": "Grums station",
    "stop_lat": "59.352987",
    "stop_lon": "13.113765",
    "location_type": "0",
    "parent_station": "9021137000217000",
    "platform_code": "*"
  },
  "9022137000222001": {
    "stop_id": "9022137000222001",
    "stop_name": "Kristinehamn station",
    "stop_lat": "59.316500",
    "stop_lon": "14.108292",
    "location_type": "0",
    "parent_station": "9021137000222000",
    "platform_code": "*"
  },
  "9022137000262001": {
    "stop_id": "9022137000262001",
    "stop_name": "Arboga station",
    "stop_lat": "59.397107",
    "stop_lon": "15.841060",
    "location_type": "0",
    "parent_station": "9021137000262000",
    "platform_code": "*"
  },
  "9022137000266001": {
    "stop_id": "9022137000266001",
    "stop_name": "Fagersta Centralstation",
    "stop_lat": "59.990463",
    "stop_lon": "15.815703",
    "location_type": "0",
    "parent_station": "9021137000266000",
    "platform_code": "*"
  },
  "9022137000280001": {
    "stop_id": "9022137000280001",
    "stop_name": "Kopparberg station",
    "stop_lat": "59.872712",
    "stop_lon": "14.986853",
    "location_type": "0",
    "parent_station": "9021137000280000",
    "platform_code": "*"
  },
  "9022137000287001": {
    "stop_id": "9022137000287001",
    "stop_name": "V\u00e4se",
    "stop_lat": "59.381610",
    "stop_lon": "13.853490",
    "location_type": "0",
    "parent_station": "9021137000287000",
    "platform_code": "*"
  },
  "9022137000288001": {
    "stop_id": "9022137000288001",
    "stop_name": "Flen station",
    "stop_lat": "59.057298",
    "stop_lon": "16.588914",
    "location_type": "0",
    "parent_station": "9021137000288000",
    "platform_code": "*"
  },
  "9022137000291001": {
    "stop_id": "9022137000291001",
    "stop_name": "Ludvika station",
    "stop_lat": "60.149828",
    "stop_lon": "15.182648",
    "location_type": "0",
    "parent_station": "9021137000291000",
    "platform_code": "*"
  },
  "9022137000302001": {
    "stop_id": "9022137000302001",
    "stop_name": "Mora station",
    "stop_lat": "61.009054",
    "stop_lon": "14.560044",
    "location_type": "0",
    "parent_station": "9021137000302000",
    "platform_code": "*"
  },
  "9022137000322001": {
    "stop_id": "9022137000322001",
    "stop_name": "Gagnef station",
    "stop_lat": "60.598796",
    "stop_lon": "15.081377",
    "location_type": "0",
    "parent_station": "9021137000322000",
    "platform_code": "*"
  },
  "9022137000347001": {
    "stop_id": "9022137000347001",
    "stop_name": "Storfors station",
    "stop_lat": "59.533168",
    "stop_lon": "14.271408",
    "location_type": "0",
    "parent_station": "9021137000347000",
    "platform_code": "*"
  },
  "9022137000361001": {
    "stop_id": "9022137000361001",
    "stop_name": "\u00d6rebro S\u00f6dra station",
    "stop_lat": "59.269985",
    "stop_lon": "15.202329",
    "location_type": "0",
    "parent_station": "9021137000361000",
    "platform_code": "*"
  },
  "9022137000419001": {
    "stop_id": "9022137000419001",
    "stop_name": "H\u00e4llefors station",
    "stop_lat": "59.782636",
    "stop_lon": "14.518613",
    "location_type": "0",
    "parent_station": "9021137000419000",
    "platform_code": "*"
  },
  "9022137000482001": {
    "stop_id": "9022137000482001",
    "stop_name": "Grythyttan station",
    "stop_lat": "59.704246",
    "stop_lon": "14.530401",
    "location_type": "0",
    "parent_station": "9021137000482000",
    "platform_code": "*"
  },
  "9022137000540001": {
    "stop_id": "9022137000540001",
    "stop_name": "Lerum station",
    "stop_lat": "57.769359",
    "stop_lon": "12.272316",
    "location_type": "0",
    "parent_station": "9021137000540000",
    "platform_code": "*"
  },
  "9022137000569001": {
    "stop_id": "9022137000569001",
    "stop_name": "V\u00e5rg\u00e5rda station",
    "stop_lat": "58.031202",
    "stop_lon": "12.810288",
    "location_type": "0",
    "parent_station": "9021137000569000",
    "platform_code": "*"
  },
  "9022137000622001": {
    "stop_id": "9022137000622001",
    "stop_name": "Stockholm Cityterminalen",
    "stop_lat": "59.330843",
    "stop_lon": "18.056374",
    "location_type": "0",
    "parent_station": "9021137000622000",
    "platform_code": "*"
  },
  "9022137000638001": {
    "stop_id": "9022137000638001",
    "stop_name": "St\u00e4lldalen station",
    "stop_lat": "59.933651",
    "stop_lon": "14.943210",
    "location_type": "0",
    "parent_station": "9021137000638000",
    "platform_code": "*"
  },
  "9022137000765001": {
    "stop_id": "9022137000765001",
    "stop_name": "Stockholm S\u00f6dra station",
    "stop_lat": "59.314171",
    "stop_lon": "18.064493",
    "location_type": "0",
    "parent_station": "9021137000765000",
    "platform_code": "*"
  },
  "9022137000776001": {
    "stop_id": "9022137000776001",
    "stop_name": "Tumba station",
    "stop_lat": "59.199733",
    "stop_lon": "17.835657",
    "location_type": "0",
    "parent_station": "9021137000776000",
    "platform_code": "*"
  },
  "9022137000789001": {
    "stop_id": "9022137000789001",
    "stop_name": "\u00c4lvsj\u00f6 station",
    "stop_lat": "59.278736",
    "stop_lon": "18.011066",
    "location_type": "0",
    "parent_station": "9021137000789000",
    "platform_code": "*"
  },
  "9022137000816001": {
    "stop_id": "9022137000816001",
    "stop_name": "Nykroppa station",
    "stop_lat": "59.623839",
    "stop_lon": "14.307433",
    "location_type": "0",
    "parent_station": "9021137000816000",
    "platform_code": "*"
  },
  "9022137001532001": {
    "stop_id": "9022137001532001",
    "stop_name": "Sikfors station",
    "stop_lat": "59.806638",
    "stop_lon": "14.583244",
    "location_type": "0",
    "parent_station": "9021137001532000",
    "platform_code": "*"
  },
  "9022137001564001": {
    "stop_id": "9022137001564001",
    "stop_name": "\u00c4lv\u00e4ngen station",
    "stop_lat": "57.957818",
    "stop_lon": "12.116398",
    "location_type": "0",
    "parent_station": "9021137001564000",
    "platform_code": "*"
  },
  "9022137001601001": {
    "stop_id": "9022137001601001",
    "stop_name": "Surte station",
    "stop_lat": "57.825033",
    "stop_lon": "12.014508",
    "location_type": "0",
    "parent_station": "9021137001601000",
    "platform_code": "*"
  },
  "9022137010325001": {
    "stop_id": "9022137010325001",
    "stop_name": "Filipstad Bussterminalen",
    "stop_lat": "59.713405",
    "stop_lon": "14.173151",
    "location_type": "0",
    "parent_station": "9021137010325000",
    "platform_code": "*"
  },
  "9022137020094001": {
    "stop_id": "9022137020094001",
    "stop_name": "Fagersta Norra",
    "stop_lat": "60.002714",
    "stop_lon": "15.787765",
    "location_type": "0",
    "parent_station": "9021137020094000",
    "platform_code": "*"
  },
  "9022137025002001": {
    "stop_id": "9022137025002001",
    "stop_name": "V\u00e4lsviken station",
    "stop_lat": "59.391296",
    "stop_lon": "13.582952",
    "location_type": "0",
    "parent_station": "9021137025002000",
    "platform_code": "*"
  }
}